City_ID,City,Lat,Lng,Max Temp,Humidity,Cloudiness,Wind Speed,Country,Date
0,meulaboh,4.1363,96.1285,297.03,88,97,1.61,ID,25200
1,lebu,-37.6167,-73.65,291.47,81,54,3.99,CL,-10800
2,carnarvon,-24.8667,113.6333,298.84,71,1,1.96,AU,28800
3,kavaratti,10.5669,72.642,300.49,67,81,2.41,IN,19800
4,lata,40.1629,-8.3327,279.86,72,0,1.71,PT,0
5,padang,-0.9492,100.3543,297.18,85,100,1.39,ID,25200
6,ushuaia,-54.8,-68.3,284.96,58,75,5.14,AR,-10800
7,westport,41.1415,-73.3579,267.64,32,0,3.13,US,-18000
8,tuktoyaktuk,69.4541,-133.0374,234.57,100,32,0.77,CA,-25200
9,bethel,41.3712,-73.414,266.13,36,20,3.09,US,-18000
10,nanortalik,60.1432,-45.2371,269.7,74,99,9.95,GL,-10800
11,port alfred,-33.5906,26.891,296.03,89,100,0.45,ZA,7200
12,beamsville,43.1668,-79.4829,270.94,54,89,8.23,CA,-18000
13,aswan,24.0934,32.907,288.22,26,54,4.23,EG,7200
14,mahebourg,-20.4081,57.7,299.31,89,40,2.06,MU,14400
15,hobart,-42.8794,147.3294,288.74,66,20,3.09,AU,39600
16,hofn,64.2539,-15.2082,274.0,58,36,5.1,IS,0
17,new norfolk,-42.7826,147.0587,287.99,64,15,0.89,AU,39600
18,takaka,-40.85,172.8,294.57,94,99,2.43,NZ,46800
19,khatanga,71.9667,102.5,234.44,100,53,2.3,RU,25200
20,severo-kurilsk,50.6789,156.125,269.79,73,100,2.78,RU,39600
21,yellowknife,62.456,-114.3525,247.84,82,33,1.6,CA,-25200
22,cape town,-33.9258,18.4232,294.88,85,40,2.57,ZA,7200
23,gat,31.61,34.7642,285.59,100,69,3.03,IL,7200
24,jamestown,42.097,-79.2353,270.21,32,0,6.17,US,-18000
25,leshukonskoye,64.8989,45.7622,250.71,100,97,1.2,RU,10800
26,ilulissat,69.2167,-51.1,255.16,65,75,2.06,GL,-10800
27,mar del plata,-38.0023,-57.5575,295.28,68,0,5.66,AR,-10800
28,kroonstad,-27.6504,27.2349,292.68,50,15,3.82,ZA,7200
29,rikitea,-23.1203,-134.9692,299.12,75,3,6.52,PF,-32400
30,yulara,-25.2406,130.9889,291.62,33,0,4.43,AU,34200
31,husavik,66.0449,-17.3389,270.52,71,3,5.72,IS,0
32,saint-philippe,-21.3585,55.7679,298.92,86,99,4.54,RE,14400
33,kapaa,22.0752,-159.319,295.33,94,100,11.32,US,-36000
34,sakrand,26.1384,68.2736,292.94,26,0,2.6,PK,18000
35,tautira,-17.7333,-149.15,299.48,78,60,6.41,PF,-36000
36,bhatkal,13.9667,74.5667,298.77,60,0,1.59,IN,19800
37,san carlos de bariloche,-41.1456,-71.3082,308.01,8,0,4.63,AR,-10800
38,aykhal,66.0,111.5,235.28,100,100,1.05,RU,32400
39,mataura,-46.1927,168.8643,295.25,71,100,1.94,NZ,46800
40,kaitangata,-46.2817,169.8464,295.14,67,100,2.29,NZ,46800
41,leningradskiy,69.3833,178.4167,240.75,99,100,2.19,RU,43200
42,pavlodar,52.3,76.95,250.04,77,0,3.0,KZ,21600
43,vila,42.0304,-8.1588,278.64,42,0,2.06,PT,0
44,yerofey pavlovich,53.9667,121.9667,245.87,98,91,1.29,RU,32400
45,port blair,11.6667,92.75,299.15,81,12,3.26,IN,19800
46,punta arenas,-53.15,-70.9167,283.21,93,100,4.12,CL,-10800
47,castro,-24.7911,-50.0119,293.34,91,73,3.45,BR,-10800
48,college,64.8569,-147.8028,262.12,76,75,1.54,US,-32400
49,chokurdakh,70.6333,147.9167,240.74,98,67,3.49,RU,39600
50,iqaluit,63.7506,-68.5145,236.31,65,40,6.17,CA,-18000
51,orchard homes,46.8633,-114.0484,280.53,59,100,2.68,US,-25200
52,kodiak,57.79,-152.4072,271.88,80,0,0.0,US,-32400
53,bluff,-46.6,168.3333,291.23,89,100,3.5,NZ,46800
54,albany,42.6001,-73.9662,262.49,46,61,1.64,US,-18000
55,busselton,-33.65,115.3333,295.68,45,80,3.6,AU,28800
56,dunedin,-45.8742,170.5036,294.71,79,100,1.79,NZ,46800
57,qaanaaq,77.484,-69.3632,253.44,64,99,2.64,GL,-14400
58,lavrentiya,65.5833,-171.0,248.0,94,94,3.09,RU,43200
59,waipawa,-41.4122,175.5153,295.08,70,10,3.14,NZ,46800
60,gamba,-2.65,10.0,297.85,89,98,0.54,GA,3600
61,basoko,1.2391,23.616,297.38,42,19,1.35,CD,7200
62,pisco,-13.7,-76.2167,297.18,83,0,4.12,PE,-18000
63,bathsheba,13.2167,-59.5167,300.49,74,75,9.26,BB,-14400
64,bengkulu,-3.8004,102.2655,296.39,90,100,1.83,ID,25200
65,huilong,31.8111,121.655,277.55,80,100,3.17,CN,28800
66,bocaue,14.7997,120.9269,297.63,79,89,2.11,PH,28800
67,baykit,61.67,96.37,256.58,100,99,0.75,RU,25200
68,bridlington,54.0831,-0.1919,282.2,81,99,7.55,GB,0
69,aksu,41.1231,80.2644,266.02,85,12,2.74,CN,28800
70,portland,45.5234,-122.6762,284.94,79,100,4.47,US,-28800
71,ribeira grande,38.5167,-28.7,290.25,94,20,4.63,PT,-3600
72,kirkby in ashfield,53.0998,-1.2438,281.6,91,100,1.34,GB,0
73,miraflores,19.2167,-98.8083,296.47,26,0,1.7,MX,-21600
74,eyl,7.9803,49.8164,295.98,71,90,6.1,SO,10800
75,pokhara,28.2333,83.9833,285.64,46,4,2.23,NP,20700
76,torbay,47.6666,-52.7314,259.58,77,75,14.4,CA,-12600
77,upernavik,72.7868,-56.1549,251.78,95,100,2.8,GL,-10800
78,hermanus,-34.4187,19.2345,293.04,93,24,3.21,ZA,7200
79,barrow,71.2906,-156.7887,242.16,76,20,3.6,US,-32400
80,faanui,-16.4833,-151.75,300.7,71,70,8.55,PF,-36000
81,nikolskoye,59.7035,30.7861,270.09,92,100,3.34,RU,10800
82,kaeo,-35.1,173.7833,293.35,86,95,3.24,NZ,46800
83,tomatlan,19.9333,-105.25,304.43,31,3,4.0,MX,-21600
84,port elizabeth,-33.918,25.5701,297.45,63,100,2.69,ZA,7200
85,erzin,36.9559,36.2,279.27,81,100,1.9,TR,10800
86,hilo,19.7297,-155.09,297.18,95,75,2.57,US,-36000
87,vaini,-21.2,-175.2,302.24,79,40,4.12,TO,46800
88,mount gambier,-37.8333,140.7667,286.97,82,100,1.23,AU,37800
89,rawson,-43.3002,-65.1023,305.78,25,15,8.96,AR,-10800
90,takoradi,4.8845,-1.7554,299.54,83,86,3.63,GH,0
91,matagami,49.7502,-77.6328,255.21,78,100,7.72,CA,-18000
92,vostok,46.4856,135.8833,253.38,97,100,2.01,RU,36000
93,cayenne,4.9333,-52.3333,297.17,100,75,6.17,GF,-10800
94,cabedelo,-6.9811,-34.8339,301.52,78,46,5.46,BR,-10800
95,loharu,28.45,75.8167,289.21,33,0,2.6,IN,19800
96,kalmunai,7.4167,81.8167,297.37,90,97,3.29,LK,19800
97,pacific grove,36.6177,-121.9166,289.63,83,75,11.62,US,-28800
98,otjiwarongo,-20.4637,16.6477,291.0,84,100,2.57,NA,7200
99,fortuna,40.5982,-124.1573,290.36,58,40,8.75,US,-28800
100,atuona,-9.8,-139.0333,299.14,75,37,8.62,PF,-34200
101,raga,8.4596,25.678,296.48,17,51,1.58,SS,7200
102,tahta,26.7693,31.5021,285.95,49,46,2.13,EG,7200
103,norman wells,65.282,-126.8329,247.17,64,75,2.06,CA,-25200
104,lorengau,-2.0226,147.2712,300.57,73,100,1.89,PG,36000
105,bitung,1.4451,125.1824,295.62,71,100,1.64,ID,28800
106,clyde river,70.4692,-68.5914,245.28,57,75,6.69,CA,-18000
107,kidal,18.4411,1.4078,295.92,10,97,4.92,ML,0
108,palagiano,40.5782,17.0374,281.94,43,70,8.99,IT,3600
109,cherskiy,68.75,161.3,235.53,100,95,2.11,RU,39600
110,codrington,-38.2667,141.9667,287.76,81,100,2.39,AU,39600
111,bata,1.8639,9.7658,300.04,82,20,4.57,GQ,3600
112,san rafael,-34.6177,-68.3301,305.24,16,0,5.57,AR,-10800
113,ponta do sol,32.6667,-17.1,290.5,59,23,4.34,PT,0
114,nishihara,26.1842,127.7558,289.75,88,75,4.12,JP,32400
115,orissaare,58.5592,23.0826,268.12,70,5,4.28,EE,7200
116,port hueneme,34.1478,-119.1951,297.48,45,0,2.57,US,-28800
117,victoria,22.2855,114.1577,291.45,86,100,4.47,HK,28800
118,aranjuez,40.0311,-3.6025,285.11,48,0,1.73,ES,3600
119,baljevac,44.8206,15.7799,271.05,78,73,4.0,BA,3600
120,kharp,66.8014,65.8081,259.32,89,83,4.26,RU,18000
121,hasaki,35.7333,140.8333,276.05,57,3,7.73,JP,32400
122,jardim,-21.4803,-56.1381,301.65,55,32,2.75,BR,-14400
123,victoria point,-27.5833,153.3,299.21,87,65,1.79,AU,36000
124,havre-saint-pierre,50.2334,-63.5986,260.15,55,100,10.8,CA,-18000
125,bredasdorp,-34.5322,20.0403,295.05,78,0,2.89,ZA,7200
126,bay roberts,47.5999,-53.2648,260.0,89,100,4.92,CA,-12600
127,tupik,54.4253,119.9327,240.1,100,85,0.91,RU,32400
128,sinnamary,5.3833,-52.95,298.23,88,100,7.15,GF,-10800
129,churapcha,62.0025,132.4325,238.09,100,100,0.08,RU,32400
130,hualmay,-11.0964,-77.6139,297.4,73,93,3.88,PE,-18000
131,isangel,-19.55,169.2667,302.21,89,75,1.54,VU,39600
132,manama,26.2154,50.5832,290.33,62,0,2.06,BH,10800
133,trelew,-43.249,-65.3051,310.35,13,4,7.61,AR,-10800
134,yuzhno-kurilsk,44.0306,145.8556,266.39,69,36,4.03,RU,36000
135,thompson,55.7435,-97.8558,254.24,65,20,1.54,CA,-21600
136,nhulunbuy,-12.2333,136.7667,296.49,94,40,0.0,AU,34200
137,bilibino,68.0546,166.4372,236.09,98,17,2.17,RU,43200
138,quirinopolis,-18.4483,-50.4517,299.18,80,77,2.36,BR,-10800
139,saint-joseph,-21.3667,55.6167,298.36,84,99,4.52,RE,14400
140,talnakh,69.4865,88.3972,262.71,96,100,2.89,RU,25200
141,wattegama,6.7989,81.4808,295.33,93,66,2.01,LK,19800
142,miura,35.14,139.6192,278.73,60,3,7.06,JP,32400
143,harsud,22.1,76.7333,290.33,30,4,2.04,IN,19800
144,broome,42.2506,-75.833,266.49,58,100,5.81,US,-18000
145,tremedal,-14.9758,-41.4108,299.4,62,39,0.9,BR,-10800
146,qui nhon,13.7667,109.2333,296.81,81,61,2.29,VN,25200
147,burgeo,47.6167,-57.6152,261.96,89,99,21.03,CA,-12600
148,sicamous,50.8331,-118.9856,279.69,83,55,1.16,CA,-28800
149,bambous virieux,-20.3428,57.7575,299.29,89,40,2.06,MU,14400
150,tres lagoas,-20.7511,-51.6783,298.73,85,97,1.36,BR,-14400
151,vichuga,57.2128,41.9301,268.38,98,100,1.62,RU,10800
152,aquiraz,-3.9014,-38.3911,301.2,81,83,4.03,BR,-10800
153,katsina,12.9894,7.6006,300.09,28,0,2.06,NG,3600
154,colares,38.7992,-9.4469,286.7,59,0,6.71,PT,0
155,daru,-9.0763,143.2092,297.29,94,100,3.85,PG,36000
156,raglan,-37.8,174.8833,296.17,76,28,3.36,NZ,46800
157,belmonte,-15.8631,-38.8828,300.27,79,2,4.93,BR,-10800
158,mayor pablo lagerenza,-19.9309,-60.7718,306.79,30,95,3.79,PY,-10800
159,beringovskiy,63.05,179.3167,243.59,90,38,6.4,RU,43200
160,viedma,-40.8135,-62.9967,304.61,28,0,9.21,AR,-10800
161,plettenberg bay,-34.0527,23.3716,295.59,71,24,2.15,ZA,7200
162,dikson,73.5069,80.5464,252.95,98,100,1.51,RU,25200
163,sechura,-5.5569,-80.8222,300.65,57,84,7.42,PE,-18000
164,kajaani,64.2273,27.7285,257.18,85,0,2.06,FI,7200
165,twin falls,42.3505,-114.6445,277.34,60,0,2.06,US,-25200
166,sungaipenuh,-2.0833,101.3833,291.17,99,100,0.06,ID,25200
167,tasiilaq,65.6145,-37.6368,269.24,81,100,7.22,GL,-10800
168,saskylakh,71.9167,114.0833,234.23,100,83,1.13,RU,32400
169,sabang,5.8933,95.3214,299.95,76,94,4.5,ID,25200
170,georgetown,5.4112,100.3354,299.11,78,20,3.09,MY,28800
171,belaya gora,68.5333,146.4167,236.31,100,99,1.81,RU,39600
172,morgan city,29.6994,-91.2068,292.04,48,0,2.57,US,-21600
173,barcelos,41.5388,-8.6151,284.64,74,0,2.08,PT,0
174,usinsk,65.9939,57.5281,260.04,96,98,2.97,RU,10800
175,repalle,16.0167,80.85,293.41,83,2,0.56,IN,19800
176,taseyevo,57.2169,94.8978,253.13,100,100,0.41,RU,25200
177,komsomolskiy,40.4272,71.7189,277.55,87,100,3.09,UZ,18000
178,port lincoln,-34.7333,135.8667,289.13,78,53,1.95,AU,37800
179,luderitz,-26.6481,15.1594,290.66,86,15,7.07,NA,7200
180,mookane,-23.688,26.6595,295.97,73,71,3.66,BW,7200
181,nyurba,63.2842,118.3319,225.99,100,100,0.78,RU,32400
182,pandan,14.0453,124.1694,297.85,88,99,6.83,PH,28800
183,plainview,40.7765,-73.4673,268.59,33,75,2.57,US,-18000
184,sao joao da barra,-21.6403,-41.0511,303.2,88,8,6.45,BR,-10800
185,butaritari,3.0707,172.7902,300.55,80,66,8.8,KI,43200
186,east london,-33.0153,27.9116,296.94,83,100,5.01,ZA,7200
187,mollendo,-17.0231,-72.0147,298.07,75,62,3.02,PE,-18000
188,san quintin,30.4833,-115.95,291.18,53,0,4.93,MX,-28800
189,souillac,-20.5167,57.5167,299.36,89,40,2.06,MU,14400
190,puerto ayora,-0.7393,-90.3518,303.13,88,40,3.13,EC,-21600
191,uvira,-3.4067,29.1458,295.94,78,57,0.83,CD,7200
192,sao filipe,14.8961,-24.4956,295.16,63,37,6.24,CV,-3600
193,hami,42.8,93.45,272.22,37,100,2.5,CN,28800
194,salon,26.0333,81.45,286.41,53,0,3.0,IN,19800
195,hirara,24.8,125.2833,293.71,71,75,5.78,JP,32400
196,shasta lake,40.6804,-122.3708,284.55,90,100,0.9,US,-28800
197,saryg-sep,51.5,95.6,256.79,95,100,0.16,RU,25200
198,dreux,48.6667,1.25,280.85,80,100,3.2,FR,3600
199,bloomfield,40.8068,-74.1854,269.8,35,0,4.63,US,-18000
200,razvilnoye,46.2387,41.2987,274.67,97,100,2.5,RU,10800
201,pangnirtung,66.1451,-65.7125,236.27,96,76,1.36,CA,-18000
202,kribi,2.95,9.9167,300.32,82,29,4.86,CM,3600
203,san luis,-33.295,-66.3356,302.99,18,0,4.29,AR,-10800
204,benguela,-12.5763,13.4055,297.71,80,94,1.98,AO,3600
205,barreirinhas,-2.7469,-42.8264,298.79,86,74,4.14,BR,-10800
206,martapura,-3.4167,114.85,298.2,100,100,0.51,ID,28800
207,vila velha,-20.3297,-40.2925,301.45,83,0,7.2,BR,-10800
208,puerto leguizamo,-0.1934,-74.7819,298.04,82,85,1.68,CO,-18000
209,tuatapere,-46.1333,167.6833,293.0,92,100,1.02,NZ,46800
210,bukachacha,52.9833,116.9167,247.6,99,22,1.47,RU,32400
211,nsunga,-1.1439,31.3947,290.6,71,65,0.52,TZ,10800
212,talara,-4.5772,-81.2719,301.57,61,40,5.14,PE,-18000
213,gorontalo,0.5412,123.0595,296.78,90,100,1.36,ID,28800
214,arraial do cabo,-22.9661,-42.0278,302.13,74,0,6.17,BR,-10800
215,port-cartier,50.0334,-66.8654,254.12,68,98,8.54,CA,-18000
216,bang saphan,11.2126,99.5117,296.35,93,51,0.96,TH,25200
217,asfi,32.2994,-9.2372,286.99,71,1,1.58,MA,3600
218,blacksburg,37.2296,-80.4139,278.36,42,0,3.09,US,-18000
219,malyye derbety,47.9547,44.6808,271.36,88,100,1.74,RU,10800
220,port hawkesbury,45.6169,-61.3485,258.13,86,100,14.4,CA,-14400
221,creel,27.75,-107.6333,290.25,18,0,6.07,MX,-25200
222,bar harbor,44.3876,-68.2039,259.97,38,0,5.14,US,-18000
223,saint-denis,48.9167,2.3333,282.46,83,100,3.6,FR,3600
224,yei,4.095,30.6779,297.57,31,26,1.28,SS,7200
225,raudeberg,61.9875,5.1352,277.57,65,100,16.15,NO,3600
226,cabo san lucas,22.8909,-109.9124,299.76,46,0,3.6,MX,-25200
227,marystown,47.1666,-55.1483,260.26,89,100,15.54,CA,-12600
228,libreville,0.3925,9.4537,300.21,80,99,4.13,GA,3600
229,san cristobal,7.7669,-72.225,299.25,36,13,2.88,VE,-14400
230,ballina,-28.8667,153.5667,298.16,85,99,3.34,AU,39600
231,dakar,14.6937,-17.4441,295.64,67,93,8.37,SN,0
232,biak,-0.9131,122.8766,297.23,84,100,1.28,ID,28800
233,tura,25.5198,90.2201,286.82,54,0,1.08,IN,19800
234,cruzeiro do sul,-29.5128,-51.9853,302.33,55,90,2.11,BR,-10800
235,esperance,-33.8667,121.9,290.62,71,0,6.6,AU,28800
236,avera,33.194,-82.5271,285.03,35,35,3.13,US,-18000
237,makakilo city,21.3469,-158.0858,294.82,88,100,4.12,US,-36000
238,toora-khem,52.4675,96.11,251.93,100,100,0.72,RU,25200
239,sao felix do xingu,-6.6447,-51.995,297.8,95,83,1.19,BR,-10800
240,machinga,-15.1685,35.3,294.34,89,100,0.81,MW,7200
241,imeni babushkina,59.7573,43.1285,265.73,98,100,1.18,RU,10800
242,gornopravdinsk,60.05,69.9,254.0,99,95,1.51,RU,18000
243,hithadhoo,-0.6,73.0833,300.5,73,98,6.49,MV,18000
244,inhambane,-23.865,35.3833,297.62,86,8,3.81,MZ,7200
245,kungurtug,50.5994,97.5228,255.13,97,99,0.69,RU,25200
246,suntar,62.1444,117.6319,229.91,100,95,1.53,RU,32400
247,srednekolymsk,67.45,153.6833,237.59,100,100,1.35,RU,39600
248,jalu,29.0331,21.5482,286.11,50,100,2.07,LY,7200
249,kahului,20.8947,-156.47,298.69,78,20,7.72,US,-36000
250,karabanovo,56.3167,38.7,266.46,99,96,0.97,RU,10800
251,chengde,40.9725,117.9361,266.01,55,5,1.34,CN,28800
252,lesnikovo,55.2822,65.3175,259.19,97,99,1.13,RU,18000
253,taupo,-38.6833,176.0833,292.4,84,94,1.82,NZ,46800
254,guerrero negro,27.9769,-114.0611,294.21,34,0,4.7,MX,-25200
255,talcahuano,-36.7167,-73.1167,291.97,77,100,4.12,CL,-10800
256,avarua,-21.2078,-159.775,301.18,78,40,6.17,CK,-36000
257,sampit,-2.5333,112.95,295.79,98,100,0.93,ID,25200
258,dali,25.7,100.1833,278.74,58,5,2.39,CN,28800
259,tromso,69.6496,18.957,273.16,86,20,5.66,NO,3600
260,kavieng,-2.5744,150.7967,300.76,73,97,2.2,PG,36000
261,lanzhou,36.0564,103.7922,275.84,38,100,0.78,CN,28800
262,assai,-23.3733,-50.8414,297.07,81,90,2.17,BR,-10800
263,provideniya,64.3833,-173.3,253.45,89,100,4.79,RU,43200
264,longyearbyen,78.2186,15.6401,265.06,62,0,9.26,SJ,3600
265,el colorado,-26.3081,-59.3729,308.22,19,68,3.07,AR,-10800
266,saldanha,-33.0117,17.9442,292.18,96,88,6.59,ZA,7200
267,abu kamal,34.4506,40.9171,282.71,66,96,1.93,SY,7200
268,saint-claude,46.5,5.8333,276.97,87,95,4.14,FR,3600
269,bijie,27.3125,105.2942,279.45,90,99,1.24,CN,28800
270,walvis bay,-22.9575,14.5053,291.53,77,100,5.3,NA,7200
271,cidreira,-30.1811,-50.2056,298.55,65,57,4.37,BR,-10800
272,evora,38.5667,-7.9,280.85,69,0,2.36,PT,0
273,fort nelson,58.8053,-122.7002,259.79,67,75,0.45,CA,-25200
274,saint-augustin,51.226,-58.6502,259.94,72,71,10.3,CA,-14400
275,gubkinskiy,64.434,76.5026,262.74,93,100,4.51,RU,18000
276,lompoc,34.6391,-120.4579,294.7,69,0,2.57,US,-28800
277,haines junction,60.7522,-137.5108,264.12,67,100,0.51,CA,-25200
278,adrar,20.5022,-10.0711,290.37,16,100,4.65,MR,0
279,alice springs,-23.7,133.8833,284.9,87,2,2.06,AU,34200
280,jiexiu,37.0244,111.9125,274.19,33,25,0.87,CN,28800
281,ahipara,-35.1667,173.1667,294.57,78,100,4.24,NZ,46800
282,grand-santi,4.25,-54.3833,296.44,98,94,2.45,GF,-10800
283,san policarpo,12.1791,125.5072,299.07,84,99,6.97,PH,28800
284,utica,43.1009,-75.2327,262.07,68,96,3.74,US,-18000
285,minsk,53.9,27.5667,268.01,93,100,5.59,BY,10800
286,saint-francois,46.4154,3.9054,279.84,95,0,1.54,FR,3600
287,mama,58.3106,112.8986,256.1,99,100,1.43,RU,28800
288,jimenez,28.3333,-105.4,293.9,21,4,1.55,MX,-25200
289,tombouctou,20.0,-3.0,289.98,18,100,4.75,ML,0
290,caraballeda,10.6112,-66.8522,303.63,67,40,2.06,VE,-14400
291,antalaha,-14.9003,50.2788,297.39,88,15,2.63,MG,10800
292,kensington,-33.9167,151.2167,294.09,52,0,5.66,AU,39600
293,sitka,57.0531,-135.33,275.09,93,100,1.54,US,-32400
294,capao da canoa,-29.7456,-50.0097,298.45,67,39,3.92,BR,-10800
295,necochea,-38.5473,-58.7368,294.73,47,0,5.09,AR,-10800
296,sao gabriel da cachoeira,-0.1303,-67.0892,299.23,93,100,0.48,BR,-14400
297,maceio,-9.6658,-35.7353,300.84,78,0,4.63,BR,-10800
298,severobaykalsk,55.65,109.3167,253.35,90,76,2.43,RU,28800
299,taonan,45.3333,122.7833,257.09,89,46,2.01,CN,28800
300,goundam,16.4145,-3.6708,294.27,12,42,4.66,ML,0
301,kyren,51.6828,102.1408,255.74,89,40,0.57,RU,28800
302,koshurnikovo,54.1667,93.3,253.46,99,100,1.02,RU,25200
303,santa barbara,34.7333,-120.0343,292.47,46,0,2.57,US,-28800
304,boguchany,58.3814,97.4531,258.84,98,98,1.21,RU,25200
305,yaan,7.3833,8.5667,304.23,19,100,1.63,NG,3600
306,nantucket,41.2835,-70.0995,264.23,48,0,5.66,US,-18000
307,peleduy,59.6289,112.7406,255.56,98,100,1.73,RU,32400
308,shelui,-4.3667,34.2,292.42,81,58,2.1,TZ,10800
309,onguday,50.75,86.15,268.06,97,100,0.38,RU,25200
310,ancona,43.55,13.1667,282.27,52,100,3.6,IT,3600
311,arlit,18.7369,7.3853,296.54,11,20,5.16,NE,3600
312,san patricio,28.017,-97.5169,294.91,53,48,5.26,US,-21600
313,airai,-8.9266,125.4092,288.72,91,99,1.12,TL,32400
314,lugovoy,42.9472,72.7644,272.39,88,100,1.56,KZ,21600
315,qaqortoq,60.7167,-46.0333,269.05,81,100,10.14,GL,-10800
316,deputatskiy,69.3,139.9,237.86,99,96,1.63,RU,36000
317,sheridan,44.8333,-106.9173,279.36,49,0,2.57,US,-25200
318,khandyga,62.6667,135.6,230.32,99,92,0.61,RU,32400
319,winslow,35.0242,-110.6974,287.25,24,0,1.54,US,-25200
320,dingle,10.9995,122.6711,296.54,94,96,3.95,PH,28800
321,itoman,26.1247,127.6694,290.16,88,75,4.12,JP,32400
322,gull lake,50.1001,-108.4847,273.77,84,67,4.45,CA,-21600
323,margate,51.3813,1.3862,281.43,75,100,0.89,GB,0
324,sarankhola,22.3082,89.7897,289.14,47,62,1.25,BD,21600
325,vestmannaeyjar,63.4427,-20.2734,276.82,85,100,11.47,IS,0
326,kloulklubed,7.0419,134.2556,301.12,76,97,8.05,PW,32400
327,sola,-13.8833,167.55,300.48,83,100,13.3,VU,39600
328,bacalar,18.6667,-88.3833,298.21,73,75,2.57,MX,-18000
329,nelson bay,-32.7167,152.15,293.71,62,0,4.02,AU,39600
330,namibe,-15.1961,12.1522,294.85,76,52,3.41,AO,3600
331,vao,-22.6667,167.4833,299.42,87,87,9.0,NC,39600
332,berlevag,70.8578,29.0864,271.15,86,61,2.57,NO,3600
333,northam,51.0333,-4.2167,283.37,92,100,2.96,GB,0
334,santa rita,-7.1139,-34.9781,301.52,74,20,5.66,BR,-10800
335,itarema,-2.9248,-39.9167,299.68,80,45,6.65,BR,-10800
336,tabuk,17.4189,121.4443,291.44,89,92,1.43,PH,28800
337,tiksi,71.6872,128.8694,246.67,100,100,1.98,RU,32400
338,metro,-5.1131,105.3067,297.31,88,100,0.73,ID,25200
339,grindavik,63.8424,-22.4338,276.12,80,75,6.69,IS,0
340,faya,18.3851,42.4509,286.44,64,75,0.11,SA,10800
341,baker city,44.7749,-117.8344,278.99,58,75,6.69,US,-28800
342,eirunepe,-6.6603,-69.8736,300.58,77,92,0.93,BR,-18000
343,terra santa,-2.1042,-56.4869,302.35,71,91,0.71,BR,-10800
344,kandrian,-6.2167,149.55,299.01,86,97,2.63,PG,36000
345,cartagena del chaira,1.3349,-74.8429,308.67,27,82,1.49,CO,-18000
346,carballo,43.213,-8.691,282.52,95,4,1.76,ES,3600
347,melfi,40.9965,15.6514,277.46,61,99,6.89,IT,3600
348,charcas,23.1333,-101.1167,291.07,21,51,2.23,MX,-21600
349,arinos,-15.9169,-46.1056,299.85,69,62,1.21,BR,-10800
350,aklavik,68.2191,-135.0107,237.15,68,20,1.03,CA,-25200
351,umarkot,25.3616,69.7362,292.12,43,1,3.73,PK,18000
352,cockburn town,21.4612,-71.1419,299.13,65,40,6.17,TC,-18000
353,watsa,3.0372,29.5355,294.02,37,47,0.62,CD,7200
354,nouadhibou,20.931,-17.0347,294.14,30,78,5.14,MR,0
355,whitehorse,60.7161,-135.0538,261.58,84,75,2.06,CA,-25200
356,nurota,40.5614,65.6886,277.25,72,47,2.76,UZ,18000
357,chaohu,31.6,117.8667,279.05,71,100,4.52,CN,28800
358,sibolga,1.7427,98.7792,297.47,86,100,1.2,ID,25200
359,hervey bay,-25.2986,152.8535,298.97,84,94,5.19,AU,36000
360,saint-pierre,-21.3393,55.4781,298.97,83,0,2.06,RE,14400
361,shiyan,32.6475,110.7781,276.36,65,98,0.37,CN,28800
362,inzer,54.2167,57.5556,256.01,95,76,1.63,RU,18000
363,kaifeng,34.7911,114.3483,274.35,72,2,2.88,CN,28800
364,maputo,-25.9653,32.5892,299.97,74,40,4.12,MZ,7200
365,seredka,58.1584,28.1858,269.01,91,83,3.9,RU,10800
366,kyabe,9.4515,18.9449,301.65,14,24,2.27,TD,3600
367,lujan,-34.5703,-59.105,302.05,43,0,2.24,AR,-10800
368,omsukchan,62.5333,155.8,243.25,97,100,1.9,RU,39600
369,mehamn,71.0357,27.8492,271.12,86,76,2.57,NO,3600
370,bermeo,43.4209,-2.7215,283.28,81,100,2.94,ES,3600
371,cap-aux-meules,47.3821,-61.8597,260.18,92,100,18.52,CA,-14400
372,ushtobe,45.2514,77.9838,272.73,97,100,2.37,KZ,21600
373,geraldton,-28.7667,114.6,295.38,94,75,3.6,AU,28800
374,burriana,39.889,-0.085,286.3,44,0,1.98,ES,3600
375,kudahuvadhoo,2.6708,72.8944,299.49,68,80,3.14,MV,18000
376,albanel,48.8832,-72.4487,248.14,58,99,4.63,CA,-18000
377,port hardy,50.6996,-127.4199,281.25,93,75,10.29,CA,-28800
378,lokoja,7.8024,6.743,303.6,16,65,0.59,NG,3600
379,marawi,7.9986,124.2928,292.26,90,100,0.71,PH,28800
380,narsaq,60.9167,-46.05,270.27,87,100,7.73,GL,-10800
381,chuy,-33.6971,-53.4616,295.7,66,1,7.74,UY,-10800
382,kirakira,-10.4544,161.9205,300.95,82,62,1.9,SB,39600
383,mongu,-15.2484,23.1274,294.77,84,100,2.93,ZM,7200
384,tiarei,-17.5333,-149.3333,303.16,77,35,7.46,PF,-36000
385,takhatpur,22.15,81.8667,286.96,27,6,2.4,IN,19800
386,council bluffs,41.2619,-95.8608,284.52,48,75,6.69,US,-21600
387,mount darwin,-16.7725,31.5838,294.04,89,100,0.85,ZW,7200
388,praya,14.9215,-23.5087,294.45,68,0,7.72,CV,-3600
389,lagoa,39.05,-27.9833,288.23,87,3,7.87,PT,-3600
390,michigan city,41.7075,-86.895,279.29,63,75,8.27,US,-21600
391,kizlyar,43.8469,46.715,273.55,88,97,4.0,RU,10800
392,villazon,-22.0866,-65.5942,280.58,78,100,6.2,BO,-14400
393,presidente epitacio,-21.7633,-52.1156,298.43,84,100,2.25,BR,-10800
394,atar,20.5169,-13.0499,290.75,17,71,5.2,MR,0
395,warrensburg,38.7628,-93.7361,285.19,49,0,10.8,US,-21600
396,manzil salim,35.8567,8.4765,278.98,88,0,2.29,TN,3600
397,yamada,39.4667,141.95,269.98,79,14,2.29,JP,32400
398,ondangwa,-17.9167,15.95,298.41,31,88,2.02,NA,7200
399,kimbe,-5.5502,150.1429,298.42,90,96,0.82,PG,36000
400,moorhead,46.8739,-96.7676,273.68,79,0,4.12,US,-21600
401,iwaki,37.05,140.8833,272.47,83,4,4.56,JP,32400
402,kutum,14.2,24.6667,290.41,17,100,3.71,SD,7200
403,suffolk,40.8668,-72.7996,267.03,41,0,2.57,US,-18000
404,odweyne,9.4092,45.064,291.02,30,68,5.12,SO,10800
405,shakiso,5.75,38.9167,287.64,33,26,1.79,ET,10800
406,okaihau,-35.3167,173.7833,291.58,87,96,1.98,NZ,46800
407,coahuayana,18.7333,-103.6833,305.21,32,0,3.9,MX,-21600
408,gebre guracha,9.8,38.4,286.02,40,78,3.04,ET,10800
409,marzuq,14.4,46.4667,290.98,69,33,1.41,YE,10800
410,batagay,67.6333,134.6333,231.53,100,100,0.54,RU,36000
411,conceicao do araguaia,-8.2578,-49.2647,298.95,87,97,1.73,BR,-10800
412,mangrol,21.1167,70.1167,293.96,35,12,3.25,IN,19800
413,derbent,42.0678,48.2899,278.09,84,100,2.64,RU,10800
414,show low,34.2542,-110.0298,288.19,17,0,3.6,US,-25200
415,alamosa,37.4695,-105.87,281.14,17,0,0.0,US,-25200
416,sekondi,4.937,-1.7128,299.4,83,89,3.57,GH,0
417,moindou,-21.6924,165.677,301.35,75,62,1.66,NC,39600
418,kruisfontein,-34.0033,24.7314,295.35,66,100,1.24,ZA,7200
419,nemuro,43.3236,145.575,267.53,74,33,4.01,JP,32400
420,salalah,17.0151,54.0924,294.09,68,22,0.84,OM,14400
421,touros,-5.1989,-35.4608,299.82,79,90,6.49,BR,-10800
422,balikpapan,-1.2675,116.8289,298.7,89,20,2.57,ID,28800
423,vila franca do campo,37.7167,-25.4333,287.38,84,4,2.93,PT,-3600
424,mason city,43.1536,-93.201,276.13,76,100,2.97,US,-21600
425,petropavlovsk-kamchatskiy,53.0452,158.6483,255.48,71,40,4.0,RU,43200
426,mao,39.8885,4.2658,286.46,67,0,10.8,ES,3600
427,manta,-0.95,-80.7333,301.03,74,75,3.6,EC,-18000
428,mantua,45.1667,10.7833,282.49,83,13,3.58,IT,3600
429,najran,17.4924,44.1277,290.51,48,57,1.23,SA,10800
430,matara,5.9485,80.5353,296.49,93,58,2.64,LK,19800
431,svetlogorsk,52.6333,29.7333,266.36,92,90,4.4,BY,10800
432,rehoboth,-23.3167,17.0833,298.01,38,100,4.93,NA,7200
433,kurumkan,54.3,110.3,251.67,93,44,1.97,RU,28800
434,mamit,23.9333,92.4833,282.06,65,100,1.27,IN,19800
435,lukovetskiy,64.2956,41.9211,251.57,100,78,1.01,RU,10800
436,ottumwa,41.02,-92.4113,285.46,40,0,6.17,US,-21600
437,bubaque,11.2833,-15.8333,298.35,67,9,5.64,GW,0
438,namatanai,-3.6667,152.4333,299.25,81,100,1.14,PG,36000
439,almeirim,-1.5233,-52.5817,301.43,71,62,2.42,BR,-10800
440,nardo,40.1751,18.0297,279.15,61,40,8.75,IT,3600
441,muros,42.7762,-9.0603,282.5,80,2,4.02,ES,3600
442,san mateo del mar,16.2,-95.0,298.08,59,0,16.66,MX,-21600
443,jutai,-5.1833,-68.9,300.93,70,99,0.23,BR,-14400
444,miandrivazo,-19.5167,45.4667,297.91,90,100,1.33,MG,10800
445,maridi,4.9158,29.4742,297.36,28,29,1.68,SS,7200
446,te anau,-45.4167,167.7167,291.4,98,100,1.46,NZ,46800
447,beloha,-25.1667,45.05,296.11,83,99,6.37,MG,10800
448,conceicao da barra,-18.5933,-39.7322,299.75,83,2,4.53,BR,-10800
449,dublin,37.7021,-121.9358,289.66,78,100,6.17,US,-28800
450,chicama,-7.8447,-79.1469,296.45,56,42,4.85,PE,-18000
451,teguldet,57.3064,88.1667,250.59,100,100,0.24,RU,25200
452,okhotsk,59.3833,143.3,246.54,82,42,5.01,RU,36000
453,luganville,-15.5333,167.1667,300.57,86,100,5.36,VU,39600
454,egvekinot,66.3167,-179.1667,239.44,88,15,6.04,RU,43200
455,eureka,40.8021,-124.1637,290.51,50,100,1.34,US,-28800
456,nara,34.6851,135.8049,277.31,44,4,1.66,JP,32400
457,rockland,41.1668,-74.0496,267.85,34,26,1.34,US,-18000
458,moscow,55.7522,37.6156,273.28,98,100,1.73,RU,10800
459,whitianga,-36.8333,175.7,294.26,75,31,2.93,NZ,46800
460,kizilskoye,52.7255,58.8937,250.78,99,78,2.64,RU,18000
461,burley,42.5357,-113.7928,279.13,45,0,0.0,US,-25200
462,tambura,5.6,27.4667,297.28,19,36,2.31,SS,7200
463,cofradia,15.4,-88.15,302.0,60,23,2.67,HN,-21600
464,half moon bay,37.4636,-122.4286,289.78,93,100,6.69,US,-28800
465,pokrovsk,48.282,37.1758,271.52,82,100,0.85,UA,7200
466,kotma,23.2,81.9667,284.63,33,1,1.87,IN,19800
467,at-bashi,41.1702,75.8106,259.46,75,95,1.7,KG,21600
468,ocosingo,17.0667,-92.25,287.12,100,100,1.08,MX,-21600
469,henties bay,-22.116,14.2845,291.18,87,99,3.23,NA,7200
470,quatre cocos,-20.2078,57.7625,299.21,85,70,4.21,MU,14400
471,wajima,37.4,136.9,276.5,58,95,4.52,JP,32400
472,constitucion,-35.3333,-72.4167,292.87,75,34,2.76,CL,-10800
473,kiama,-34.6833,150.8667,294.26,64,0,3.13,AU,39600
474,hearst,49.6835,-83.6665,261.29,90,100,3.9,CA,-18000
475,yantarnyy,54.8717,19.9381,271.34,68,95,7.35,RU,7200
476,corrente,-3.7367,-43.3394,299.78,76,98,1.96,BR,-10800
477,pevek,69.7008,170.3133,235.56,100,91,0.63,RU,43200
478,mahibadhoo,3.7833,72.9667,299.86,73,74,2.29,MV,18000
479,pocerski pricinovic,44.7222,19.7072,274.18,67,100,6.24,RS,3600
480,tilichiki,60.4667,166.1,245.24,98,42,3.77,RU,43200
481,sao miguel do araguaia,-13.275,-50.1628,298.85,82,95,0.88,BR,-10800
482,roebourne,-20.7833,117.1333,304.51,50,92,1.75,AU,28800
483,sao jose da coroa grande,-8.8978,-35.1478,299.55,78,50,3.67,BR,-10800
484,chapais,49.7834,-74.8492,252.03,95,100,3.89,CA,-18000
485,emba,48.8264,58.1442,257.67,91,13,4.21,KZ,18000
486,katsuura,35.1333,140.3,279.76,68,4,5.63,JP,32400
487,mbanza-ngungu,-5.25,14.8667,295.25,86,87,1.51,CD,3600
488,kotagiri,11.4333,76.8833,286.19,75,11,0.83,IN,19800
489,sterling,39.0062,-77.4286,274.0,33,40,6.69,US,-18000
490,albac,46.45,22.9667,266.93,89,100,4.55,RO,7200
491,mareeba,-17.0,145.4333,297.84,97,100,1.2,AU,36000
492,nata,8.3333,-80.5167,305.08,56,54,9.02,PA,-18000
493,valdivia,-39.8142,-73.2459,311.2,21,2,1.62,CL,-10800
494,linqing,36.8456,115.7117,274.75,61,0,4.83,CN,28800
495,grand gaube,-20.0064,57.6608,299.37,82,97,1.34,MU,14400
496,saint george,37.1041,-113.5841,288.95,32,0,1.54,US,-25200
497,cap malheureux,-19.9842,57.6142,298.97,82,98,0.45,MU,14400
498,praia da vitoria,38.7333,-27.0667,289.13,100,40,5.54,PT,-3600
499,hay river,60.8156,-115.7999,252.14,71,75,1.54,CA,-25200
500,ban dung,17.699,103.2596,295.99,99,85,2.55,TH,25200
501,beaverlodge,55.2166,-119.4361,276.79,99,98,1.37,CA,-25200
502,russell,32.3502,-85.1999,288.75,29,0,1.54,US,-21600
503,bayanday,53.0661,105.5139,251.09,100,100,0.28,RU,28800
504,talaya,61.3833,152.75,241.87,99,100,0.38,RU,39600
505,vila do maio,15.1333,-23.2167,294.59,62,65,7.91,CV,-3600
506,mtwara,-10.2667,40.1833,299.03,80,92,0.98,TZ,10800
507,mayumba,-3.432,10.6554,298.49,86,82,2.6,GA,3600
508,liverpool,53.4106,-2.9779,281.56,84,75,6.69,GB,0
509,porto novo,6.4965,2.6036,302.05,83,6,4.85,BJ,3600
510,auki,-8.7676,160.7034,300.32,85,100,2.33,SB,39600
511,yar-sale,66.8333,70.8333,262.15,96,100,2.1,RU,18000
512,fremont,37.5483,-121.9886,290.58,77,100,8.23,US,-28800
513,parana,-31.732,-60.5238,303.47,39,0,4.74,AR,-10800
514,mount isa,-20.7333,139.5,296.02,38,99,4.63,AU,36000
515,floro,61.5996,5.0328,278.13,81,100,13.89,NO,3600
516,naze,28.3667,129.4833,286.66,68,99,4.49,JP,32400
517,maple creek,49.9168,-109.4848,279.18,56,100,5.14,CA,-21600
518,maymyo,22.0333,96.4667,287.55,48,91,0.71,MM,23400
519,papar,5.7333,115.9333,297.15,85,97,1.83,MY,28800
520,paamiut,61.994,-49.6678,268.3,78,100,8.53,GL,-10800
521,yarada,17.65,83.2667,290.33,94,4,1.03,IN,19800
522,maarianhamina,60.0973,19.9348,262.07,92,0,0.51,AX,7200
523,kismayo,-0.3582,42.5454,297.73,81,21,6.47,SO,10800
524,ponta delgada,37.7333,-25.6667,287.55,88,20,3.6,PT,-3600
525,gairatganj,23.4202,78.2385,288.13,32,2,1.9,IN,19800
526,thinadhoo,0.5333,72.9333,299.88,71,22,5.12,MV,18000
527,arman,59.7,150.1667,246.75,86,71,3.61,RU,39600
528,rosetta,31.4044,30.4164,287.13,62,43,5.46,EG,7200
529,olafsvik,64.8945,-23.7142,276.72,67,100,11.78,IS,0
530,tandlianwala,31.0333,73.1333,286.6,52,0,1.6,PK,18000
531,la tuque,47.4334,-72.7824,254.29,46,100,2.57,CA,-18000
532,shimoda,34.6667,138.95,280.45,69,33,4.68,JP,32400
533,seguela,7.9611,-6.6731,301.75,26,4,1.19,CI,0
534,awjilah,29.1081,21.2869,286.07,51,100,2.19,LY,7200
535,waingapu,-9.6567,120.2641,297.59,91,100,4.43,ID,28800
536,shakawe,-18.3667,21.85,294.58,87,71,1.46,BW,7200
537,totness,5.8833,-56.3167,298.59,85,42,6.08,SR,-10800
538,morondava,-20.2833,44.2833,299.47,83,0,2.86,MG,10800
539,green river,41.5286,-109.4662,274.37,61,55,2.24,US,-25200
540,clarence town,-32.5833,151.7833,294.16,40,0,1.06,AU,39600
541,maracaju,-21.6144,-55.1683,300.57,61,75,3.82,BR,-14400
542,khao yoi,13.2403,99.8243,297.66,82,97,1.62,TH,25200
543,fort-shevchenko,44.5086,50.263,271.74,91,38,4.7,KZ,18000
544,galdar,28.147,-15.6502,287.79,66,8,4.08,ES,0
545,angoche,-16.2325,39.9086,298.74,88,76,2.96,MZ,7200
546,hambantota,6.1241,81.1185,297.33,86,18,5.24,LK,19800
547,fez,34.0372,-4.9998,279.29,70,0,3.6,MA,3600
548,isla mujeres,21.2311,-86.731,295.18,82,35,6.44,MX,-18000
549,katherine,-14.4667,132.2667,296.33,94,34,0.0,AU,34200
550,harper,4.375,-7.7169,299.9,83,9,4.01,LR,0
551,champerico,14.3,-91.9167,306.45,60,3,5.84,GT,-21600
552,sakakah,29.9697,40.2064,279.91,57,1,3.0,SA,10800
553,dobele,56.625,23.2786,270.01,83,100,3.62,LV,7200
554,sena madureira,-9.0656,-68.6569,298.39,78,96,1.43,BR,-18000
555,panama city,8.9936,-79.5197,304.12,53,40,9.26,PA,-18000
556,wilmington,34.2257,-77.9447,279.23,51,0,4.12,US,-18000
557,goderich,43.7501,-81.7165,269.77,68,82,8.23,CA,-18000
558,porbandar,21.6422,69.6093,293.82,42,13,4.14,IN,19800
559,mastung,29.7994,66.845,282.15,60,20,1.46,PK,18000
560,bilma,18.6853,12.9164,296.07,15,26,2.29,NE,3600
561,severo-yeniseyskiy,60.3725,93.0408,260.6,97,100,1.6,RU,25200
562,sanchor,24.7553,71.7722,290.74,29,0,1.77,IN,19800
563,verkhnevilyuysk,63.4453,120.3167,237.75,100,100,1.7,RU,32400
564,mezen,65.8522,44.24,254.97,99,76,2.1,RU,10800
565,knysna,-34.0363,23.0471,296.1,73,4,1.58,ZA,7200
566,boyolangu,-8.1181,111.8935,297.44,82,100,0.63,ID,25200
567,pochutla,15.7432,-96.4661,305.05,40,2,3.42,MX,-21600
568,coquimbo,-29.9533,-71.3436,296.0,64,0,4.63,CL,-10800
569,pochinki,54.6988,44.8668,259.39,99,97,1.3,RU,10800
570,kapoeta,4.7717,33.5903,302.5,26,45,2.86,SS,7200
571,chaman,30.9236,66.4512,284.1,46,5,2.41,PK,18000
572,iquique,-20.2208,-70.1431,299.17,75,16,2.68,CL,-10800
573,cabinda,-5.55,12.2,299.84,87,64,3.43,AO,3600
574,ranfurly,-45.1333,170.1,298.21,57,100,3.27,NZ,46800
575,waidhofen,48.5833,11.3333,273.58,80,40,1.03,DE,3600
576,salta,-24.7859,-65.4117,294.48,68,40,1.54,AR,-10800
577,coihaique,-45.5752,-72.0662,302.12,26,20,4.63,CL,-10800
578,la palma,33.8464,-118.0467,298.05,45,0,3.09,US,-28800
579,palmer,42.1584,-72.3287,263.84,24,75,3.09,US,-18000
580,dukat,62.55,155.55,242.0,98,100,1.9,RU,39600
581,amazar,53.858,120.875,242.84,100,46,1.3,RU,32400
